{
  "dhaka_area_centers": [
    {
      "id": "1",
      "division_id": "3",
      "district_id": "1",
      "city_corporation": "Dhaka North",
      "name": "Gulshan",
      "bn_name": "গুলশান",
      "lat": 23.789653,
      "lng": 90.412039,
      "zoom": 12,
      "match_status": "adm3_exact",
      "matched_name": "Gulshan"
    },
    {
      "id": "2",
      "division_id": "3",
      "district_id": "1",
      "city_corporation": "Dhaka North",
      "name": "Banani",
      "bn_name": "বনানী",
      "lat": 23.789653,
      "lng": 90.412039,
      "zoom": 12,
      "match_status": "adm3_alias",
      "matched_name": "Gulshan"
    },
    {
      "id": "3",
      "division_id": "3",
      "district_id": "1",
      "city_corporation": "Dhaka North",
      "name": "Baridhara",
      "bn_name": "বারিধারা",
      "lat": 23.789653,
      "lng": 90.412039,
      "zoom": 12,
      "match_status": "adm3_alias",
      "matched_name": "Gulshan"
    },
    {
      "id": "4",
      "division_id": "3",
      "district_id": "1",
      "city_corporation": "Dhaka North",
      "name": "Uttara",
      "bn_name": "উত্তরা",
      "lat": 23.872161,
      "lng": 90.39411,
      "zoom": 12,
      "match_status": "adm3_exact",
      "matched_name": "Uttara"
    },
    {
      "id": "5",
      "division_id": "3",
      "district_id": "1",
      "city_corporation": "Dhaka North",
      "name": "Mirpur",
      "bn_name": "মিরপুর",
      "lat": 23.79416,
      "lng": 90.361756,
      "zoom": 12,
      "match_status": "adm3_exact",
      "matched_name": "Mirpur"
    },
    {
      "id": "6",
      "division_id": "3",
      "district_id": "1",
      "city_corporation": "Dhaka North",
      "name": "Mohakhali",
      "bn_name": "মহাখালী",
      "lat": 23.762838,
      "lng": 90.391695,
      "zoom": 12,
      "match_status": "adm3_alias",
      "matched_name": "Tejgaon"
    },
    {
      "id": "7",
      "division_id": "3",
      "district_id": "1",
      "city_corporation": "Dhaka North",
      "name": "Niketon",
      "bn_name": "নিকেতন",
      "lat": 23.789653,
      "lng": 90.412039,
      "zoom": 12,
      "match_status": "adm3_alias",
      "matched_name": "Gulshan"
    },
    {
      "id": "8",
      "division_id": "3",
      "district_id": "1",
      "city_corporation": "Dhaka North",
      "name": "Khilkhet",
      "bn_name": "খিলক্ষেত",
      "lat": 23.834451,
      "lng": 90.447557,
      "zoom": 12,
      "match_status": "adm3_exact",
      "matched_name": "Khilkhet"
    },
    {
      "id": "9",
      "division_id": "3",
      "district_id": "1",
      "city_corporation": "Dhaka North",
      "name": "Badda",
      "bn_name": "বাড্ডা",
      "lat": 23.798007,
      "lng": 90.448937,
      "zoom": 12,
      "match_status": "adm3_exact",
      "matched_name": "Badda"
    },
    {
      "id": "10",
      "division_id": "3",
      "district_id": "1",
      "city_corporation": "Dhaka North",
      "name": "Cantonment",
      "bn_name": "ক্যান্টনমেন্ট",
      "lat": 23.814478,
      "lng": 90.399801,
      "zoom": 12,
      "match_status": "adm3_exact",
      "matched_name": "Cantonment"
    },
    {
      "id": "11",
      "division_id": "3",
      "district_id": "1",
      "city_corporation": "Dhaka North",
      "name": "Kuril",
      "bn_name": "কুড়িল",
      "lat": 23.834451,
      "lng": 90.447557,
      "zoom": 12,
      "match_status": "adm3_alias",
      "matched_name": "Khilkhet"
    },
    {
      "id": "12",
      "division_id": "3",
      "district_id": "1",
      "city_corporation": "Dhaka North",
      "name": "Vatara",
      "bn_name": "ভাটারা",
      "lat": 23.802143,
      "lng": 90.436323,
      "zoom": 13,
      "match_status": "adm4_alias",
      "matched_name": "Bhatara"
    },
    {
      "id": "13",
      "division_id": "3",
      "district_id": "1",
      "city_corporation": "Dhaka North",
      "name": "Adabor",
      "bn_name": "আদাবর",
      "lat": 23.770167,
      "lng": 90.353335,
      "zoom": 12,
      "match_status": "adm3_exact",
      "matched_name": "Adabor"
    },
    {
      "id": "14",
      "division_id": "3",
      "district_id": "1",
      "city_corporation": "Dhaka North",
      "name": "Shewrapara",
      "bn_name": "শেওড়াপাড়া",
      "lat": 23.79416,
      "lng": 90.361756,
      "zoom": 12,
      "match_status": "adm3_alias",
      "matched_name": "Mirpur"
    },
    {
      "id": "15",
      "division_id": "3",
      "district_id": "1",
      "city_corporation": "Dhaka North",
      "name": "Agargaon",
      "bn_name": "আগারগাঁও",
      "lat": 23.769977,
      "lng": 90.375875,
      "zoom": 12,
      "match_status": "adm3_alias",
      "matched_name": "Sher-e-bangla Nagar"
    },
    {
      "id": "16",
      "division_id": "3",
      "district_id": "1",
      "city_corporation": "Dhaka North",
      "name": "Kazipara",
      "bn_name": "কাজীপাড়া",
      "lat": 23.79416,
      "lng": 90.361756,
      "zoom": 12,
      "match_status": "adm3_alias",
      "matched_name": "Mirpur"
    },
    {
      "id": "17",
      "division_id": "3",
      "district_id": "1",
      "city_corporation": "Dhaka North",
      "name": "Darussalam",
      "bn_name": "দারুসসালাম",
      "lat": 23.784055,
      "lng": 90.345151,
      "zoom": 12,
      "match_status": "adm3_alias",
      "matched_name": "Darus Salam"
    },
    {
      "id": "18",
      "division_id": "3",
      "district_id": "1",
      "city_corporation": "Dhaka North",
      "name": "Kafrul",
      "bn_name": "কাফরুল",
      "lat": 23.795633,
      "lng": 90.384821,
      "zoom": 12,
      "match_status": "adm3_exact",
      "matched_name": "Kafrul"
    },
    {
      "id": "19",
      "division_id": "3",
      "district_id": "1",
      "city_corporation": "Dhaka North",
      "name": "Uttarkhan",
      "bn_name": "উত্তরখান",
      "lat": 23.874635,
      "lng": 90.44482,
      "zoom": 12,
      "match_status": "adm3_alias",
      "matched_name": "Uttar Khan"
    },
    {
      "id": "20",
      "division_id": "3",
      "district_id": "1",
      "city_corporation": "Dhaka North",
      "name": "Pallabi",
      "bn_name": "পল্লবী",
      "lat": 23.825406,
      "lng": 90.368159,
      "zoom": 12,
      "match_status": "adm3_exact",
      "matched_name": "Pallabi"
    },
    {
      "id": "21",
      "division_id": "3",
      "district_id": "1",
      "city_corporation": "Dhaka North",
      "name": "Nikunja",
      "bn_name": "নিকুঞ্জ",
      "lat": 23.834451,
      "lng": 90.447557,
      "zoom": 12,
      "match_status": "adm3_alias",
      "matched_name": "Khilkhet"
    },
    {
      "id": "22",
      "division_id": "3",
      "district_id": "1",
      "city_corporation": "Dhaka North",
      "name": "Bashundhara R/A",
      "bn_name": "বসুন্ধরা রেজিডেন্সিয়াল এলাকা",
      "lat": 23.834451,
      "lng": 90.447557,
      "zoom": 12,
      "match_status": "adm3_alias",
      "matched_name": "Khilkhet"
    },
    {
      "id": "23",
      "division_id": "3",
      "district_id": "1",
      "city_corporation": "Dhaka North",
      "name": "Tongi",
      "bn_name": "টঙ্গি",
      "lat": 23.859978,
      "lng": 90.366656,
      "zoom": 12,
      "match_status": "adm3_alias",
      "matched_name": "Turag"
    },
    {
      "id": "24",
      "division_id": "3",
      "district_id": "1",
      "city_corporation": "Dhaka North",
      "name": "Kakrail",
      "bn_name": "কাকরাইল",
      "lat": 23.748188,
      "lng": 90.406006,
      "zoom": 12,
      "match_status": "adm3_alias",
      "matched_name": "Ramna"
    },
    {
      "id": "25",
      "division_id": "3",
      "district_id": "1",
      "city_corporation": "Dhaka North",
      "name": "Shyamoli",
      "bn_name": "শ্যামলী",
      "lat": 23.758631,
      "lng": 90.356693,
      "zoom": 12,
      "match_status": "adm3_alias",
      "matched_name": "Mohammadpur"
    },
    {
      "id": "26",
      "division_id": "3",
      "district_id": "1",
      "city_corporation": "Dhaka North",
      "name": "Dhamrai",
      "bn_name": "ধামরাই",
      "lat": 23.937071,
      "lng": 90.141472,
      "zoom": 12,
      "match_status": "adm3_exact",
      "matched_name": "Dhamrai"
    },
    {
      "id": "27",
      "division_id": "3",
      "district_id": "1",
      "city_corporation": "Dhaka North",
      "name": "Mohakhali DOHS",
      "bn_name": "মহাখালী ডিওএইচএস",
      "lat": 23.762838,
      "lng": 90.391695,
      "zoom": 12,
      "match_status": "adm3_alias",
      "matched_name": "Tejgaon"
    },
    {
      "id": "28",
      "division_id": "3",
      "district_id": "1",
      "city_corporation": "Dhaka North",
      "name": "Rampura",
      "bn_name": "রামপুরা",
      "lat": 23.760909,
      "lng": 90.420745,
      "zoom": 12,
      "match_status": "adm3_exact",
      "matched_name": "Rampura"
    },
    {
      "id": "29",
      "division_id": "3",
      "district_id": "1",
      "city_corporation": "Dhaka North",
      "name": "Mirpur DOHS",
      "bn_name": "মিরপুর ডিওএইচএস",
      "lat": 23.79416,
      "lng": 90.361756,
      "zoom": 12,
      "match_status": "adm3_exact",
      "matched_name": "Mirpur"
    },
    {
      "id": "30",
      "division_id": "3",
      "district_id": "1",
      "city_corporation": "Dhaka North",
      "name": "Mirpur Cantonment",
      "bn_name": "মিরপুর ক্যান্টনমেন্ট",
      "lat": 23.814478,
      "lng": 90.399801,
      "zoom": 12,
      "match_status": "adm3_alias",
      "matched_name": "Cantonment"
    },
    {
      "id": "31",
      "division_id": "3",
      "district_id": "1",
      "city_corporation": "Dhaka North",
      "name": "Shah Ali",
      "bn_name": "শাহ আলী",
      "lat": 23.811894,
      "lng": 90.347394,
      "zoom": 12,
      "match_status": "adm3_exact",
      "matched_name": "Shah Ali"
    },
    {
      "id": "32",
      "division_id": "3",
      "district_id": "1",
      "city_corporation": "Dhaka North",
      "name": "Rayer Bazar",
      "bn_name": "রায়ের বাজার",
      "lat": 23.758631,
      "lng": 90.356693,
      "zoom": 12,
      "match_status": "adm3_alias",
      "matched_name": "Mohammadpur"
    },
    {
      "id": "33",
      "division_id": "3",
      "district_id": "1",
      "city_corporation": "Dhaka North",
      "name": "Farmgate",
      "bn_name": "ফার্মগেট",
      "lat": 23.762838,
      "lng": 90.391695,
      "zoom": 12,
      "match_status": "adm3_alias",
      "matched_name": "Tejgaon"
    },
    {
      "id": "34",
      "division_id": "3",
      "district_id": "1",
      "city_corporation": "Dhaka North",
      "name": "Kamalapur",
      "bn_name": "কমলাপুর",
      "lat": 23.734763,
      "lng": 90.421462,
      "zoom": 12,
      "match_status": "adm3_alias",
      "matched_name": "Motijheel"
    },
    {
      "id": "35",
      "division_id": "3",
      "district_id": "1",
      "city_corporation": "Dhaka North",
      "name": "Elephant Road",
      "bn_name": "হাতিরঝিল",
      "lat": 23.747065,
      "lng": 90.38615,
      "zoom": 12,
      "match_status": "adm3_alias",
      "matched_name": "Kalabagan"
    },
    {
      "id": "36",
      "division_id": "3",
      "district_id": "1",
      "city_corporation": "Dhaka North",
      "name": "Lalmatia",
      "bn_name": "লালমাটিয়া",
      "lat": 23.758631,
      "lng": 90.356693,
      "zoom": 12,
      "match_status": "adm3_alias",
      "matched_name": "Mohammadpur"
    },
    {
      "id": "37",
      "division_id": "3",
      "district_id": "1",
      "city_corporation": "Dhaka North",
      "name": "Malibagh",
      "bn_name": "মালিবাগ",
      "lat": 23.748188,
      "lng": 90.406006,
      "zoom": 12,
      "match_status": "adm3_alias",
      "matched_name": "Ramna"
    },
    {
      "id": "38",
      "division_id": "3",
      "district_id": "1",
      "city_corporation": "Dhaka North",
      "name": "Tejgaon",
      "bn_name": "তেজগাঁও",
      "lat": 23.762838,
      "lng": 90.391695,
      "zoom": 12,
      "match_status": "adm3_exact",
      "matched_name": "Tejgaon"
    },
    {
      "id": "39",
      "division_id": "3",
      "district_id": "1",
      "city_corporation": "Dhaka North",
      "name": "Sher-e-Bangla Nagar",
      "bn_name": "শের-ই-বাংলা নগর",
      "lat": 23.769977,
      "lng": 90.375875,
      "zoom": 12,
      "match_status": "adm3_exact",
      "matched_name": "Sher-e-bangla Nagar"
    },
    {
      "id": "40",
      "division_id": "3",
      "district_id": "1",
      "city_corporation": "Dhaka North",
      "name": "Gabtoli",
      "bn_name": "গাবতলী",
      "lat": 23.79416,
      "lng": 90.361756,
      "zoom": 12,
      "match_status": "adm3_alias",
      "matched_name": "Mirpur"
    },
    {
      "id": "41",
      "division_id": "3",
      "district_id": "1",
      "city_corporation": "Dhaka North",
      "name": "Rupnagar",
      "bn_name": "রূপনগর",
      "lat": 23.825406,
      "lng": 90.368159,
      "zoom": 12,
      "match_status": "adm3_alias",
      "matched_name": "Pallabi"
    },
    {
      "id": "42",
      "division_id": "3",
      "district_id": "1",
      "city_corporation": "Dhaka South",
      "name": "Dhanmondi",
      "bn_name": "ধানমন্ডি",
      "lat": 23.745124,
      "lng": 90.373604,
      "zoom": 12,
      "match_status": "adm3_exact",
      "matched_name": "Dhanmondi"
    },
    {
      "id": "43",
      "division_id": "3",
      "district_id": "1",
      "city_corporation": "Dhaka South",
      "name": "Mohammadpur",
      "bn_name": "মোহাম্মদপুর",
      "lat": 23.758631,
      "lng": 90.356693,
      "zoom": 12,
      "match_status": "adm3_exact",
      "matched_name": "Mohammadpur"
    },
    {
      "id": "44",
      "division_id": "3",
      "district_id": "1",
      "city_corporation": "Dhaka South",
      "name": "Farmgate",
      "bn_name": "ফার্মগেট",
      "lat": 23.762838,
      "lng": 90.391695,
      "zoom": 12,
      "match_status": "adm3_alias",
      "matched_name": "Tejgaon"
    },
    {
      "id": "45",
      "division_id": "3",
      "district_id": "1",
      "city_corporation": "Dhaka South",
      "name": "Lalbagh",
      "bn_name": "লালবাগ",
      "lat": 23.721153,
      "lng": 90.37784,
      "zoom": 12,
      "match_status": "adm3_exact",
      "matched_name": "Lalbagh"
    },
    {
      "id": "46",
      "division_id": "3",
      "district_id": "1",
      "city_corporation": "Dhaka South",
      "name": "Kotwali",
      "bn_name": "কোতওয়ালী",
      "lat": 23.709697,
      "lng": 90.408099,
      "zoom": 12,
      "match_status": "adm3_exact",
      "matched_name": "Kotwali"
    },
    {
      "id": "47",
      "division_id": "3",
      "district_id": "1",
      "city_corporation": "Dhaka South",
      "name": "Shahbag",
      "bn_name": "শাহবাগ",
      "lat": 23.732478,
      "lng": 90.399144,
      "zoom": 12,
      "match_status": "adm3_alias",
      "matched_name": "Shahbagh"
    },
    {
      "id": "48",
      "division_id": "3",
      "district_id": "1",
      "city_corporation": "Dhaka South",
      "name": "Armanitola",
      "bn_name": "আরমানিটোলা",
      "lat": 23.709697,
      "lng": 90.408099,
      "zoom": 12,
      "match_status": "adm3_alias",
      "matched_name": "Kotwali"
    },
    {
      "id": "49",
      "division_id": "3",
      "district_id": "1",
      "city_corporation": "Dhaka South",
      "name": "Shyampur",
      "bn_name": "শ্যামপুর",
      "lat": 23.697113,
      "lng": 90.430068,
      "zoom": 12,
      "match_status": "adm3_exact",
      "matched_name": "Shyampur"
    },
    {
      "id": "50",
      "division_id": "3",
      "district_id": "1",
      "city_corporation": "Dhaka South",
      "name": "Demra",
      "bn_name": "ডেমরা",
      "lat": 23.724452,
      "lng": 90.481044,
      "zoom": 12,
      "match_status": "adm3_exact",
      "matched_name": "Demra"
    },
    {
      "id": "51",
      "division_id": "3",
      "district_id": "1",
      "city_corporation": "Dhaka South",
      "name": "Laxmibazar",
      "bn_name": "লক্ষ্মীবাজার",
      "lat": 23.709697,
      "lng": 90.408099,
      "zoom": 12,
      "match_status": "adm3_alias",
      "matched_name": "Kotwali"
    },
    {
      "id": "52",
      "division_id": "3",
      "district_id": "1",
      "city_corporation": "Dhaka South",
      "name": "Gendaria",
      "bn_name": "গেন্ডারিয়া",
      "lat": 23.706672,
      "lng": 90.422502,
      "zoom": 12,
      "match_status": "adm3_exact",
      "matched_name": "Gendaria"
    },
    {
      "id": "53",
      "division_id": "3",
      "district_id": "1",
      "city_corporation": "Dhaka South",
      "name": "Wari",
      "bn_name": "ওয়ারী",
      "lat": 23.713813,
      "lng": 90.417358,
      "zoom": 12,
      "match_status": "adm3_alias",
      "matched_name": "Sutrapur"
    },
    {
      "id": "54",
      "division_id": "3",
      "district_id": "1",
      "city_corporation": "Dhaka South",
      "name": "Sutrapur",
      "bn_name": "সুত্রাপুর",
      "lat": 23.713813,
      "lng": 90.417358,
      "zoom": 12,
      "match_status": "adm3_exact",
      "matched_name": "Sutrapur"
    },
    {
      "id": "55",
      "division_id": "3",
      "district_id": "1",
      "city_corporation": "Dhaka South",
      "name": "Kamrangirchar",
      "bn_name": "কামরাঙ্গীরচর",
      "lat": 23.711545,
      "lng": 90.371768,
      "zoom": 12,
      "match_status": "adm3_alias",
      "matched_name": "Kamrangir Char"
    },
    {
      "id": "56",
      "division_id": "3",
      "district_id": "1",
      "city_corporation": "Dhaka South",
      "name": "Kotwali Police Line",
      "bn_name": "কোতওয়ালী পুলিশ লাইন",
      "lat": 23.709697,
      "lng": 90.408099,
      "zoom": 12,
      "match_status": "adm3_exact",
      "matched_name": "Kotwali"
    },
    {
      "id": "57",
      "division_id": "3",
      "district_id": "1",
      "city_corporation": "Dhaka South",
      "name": "Bangshal",
      "bn_name": "বংশাল",
      "lat": 23.718011,
      "lng": 90.405042,
      "zoom": 12,
      "match_status": "adm3_exact",
      "matched_name": "Bangshal"
    },
    {
      "id": "58",
      "division_id": "3",
      "district_id": "1",
      "city_corporation": "Dhaka South",
      "name": "Chawkbazar",
      "bn_name": "চকবাজার",
      "lat": 23.717016,
      "lng": 90.39371,
      "zoom": 12,
      "match_status": "adm3_alias",
      "matched_name": "Chak Bazar"
    },
    {
      "id": "59",
      "division_id": "3",
      "district_id": "1",
      "city_corporation": "Dhaka South",
      "name": "Nayabazar",
      "bn_name": "নয়াবাজার",
      "lat": 23.718011,
      "lng": 90.405042,
      "zoom": 12,
      "match_status": "adm3_alias",
      "matched_name": "Bangshal"
    },
    {
      "id": "60",
      "division_id": "3",
      "district_id": "1",
      "city_corporation": "Dhaka South",
      "name": "Nababganj",
      "bn_name": "নবাবগঞ্জ",
      "lat": 23.718011,
      "lng": 90.405042,
      "zoom": 12,
      "match_status": "adm3_alias",
      "matched_name": "Bangshal"
    },
    {
      "id": "61",
      "division_id": "3",
      "district_id": "1",
      "city_corporation": "Dhaka South",
      "name": "Banglamotor",
      "bn_name": "বাংলামটর",
      "lat": 23.748188,
      "lng": 90.406006,
      "zoom": 12,
      "match_status": "adm3_alias",
      "matched_name": "Ramna"
    },
    {
      "id": "62",
      "division_id": "3",
      "district_id": "1",
      "city_corporation": "Dhaka South",
      "name": "Fakirapool",
      "bn_name": "ফকিরাপুল",
      "lat": 23.734763,
      "lng": 90.421462,
      "zoom": 12,
      "match_status": "adm3_alias",
      "matched_name": "Motijheel"
    },
    {
      "id": "63",
      "division_id": "3",
      "district_id": "1",
      "city_corporation": "Dhaka South",
      "name": "Shantinagar",
      "bn_name": "শান্তিনগর",
      "lat": 23.734936,
      "lng": 90.413796,
      "zoom": 12,
      "match_status": "adm3_alias",
      "matched_name": "Paltan"
    },
    {
      "id": "64",
      "division_id": "3",
      "district_id": "1",
      "city_corporation": "Dhaka South",
      "name": "Moghbazar",
      "bn_name": "মগবাজার",
      "lat": 23.748188,
      "lng": 90.406006,
      "zoom": 12,
      "match_status": "adm3_alias",
      "matched_name": "Ramna"
    },
    {
      "id": "65",
      "division_id": "3",
      "district_id": "1",
      "city_corporation": "Dhaka South",
      "name": "Gulshan Model Town",
      "bn_name": "গুলশান মডেল টাউন",
      "lat": 23.789653,
      "lng": 90.412039,
      "zoom": 12,
      "match_status": "adm3_exact",
      "matched_name": "Gulshan"
    },
    {
      "id": "66",
      "division_id": "3",
      "district_id": "1",
      "city_corporation": "Dhaka South",
      "name": "Banani",
      "bn_name": "বনানী",
      "lat": 23.789653,
      "lng": 90.412039,
      "zoom": 12,
      "match_status": "adm3_alias",
      "matched_name": "Gulshan"
    },
    {
      "id": "67",
      "division_id": "3",
      "district_id": "1",
      "city_corporation": "Dhaka South",
      "name": "Baridhara",
      "bn_name": "বারিধারা",
      "lat": 23.789653,
      "lng": 90.412039,
      "zoom": 12,
      "match_status": "adm3_alias",
      "matched_name": "Gulshan"
    },
    {
      "id": "68",
      "division_id": "3",
      "district_id": "1",
      "city_corporation": "Dhaka South",
      "name": "Bashundhara",
      "bn_name": "বসুন্ধরা",
      "lat": 23.834451,
      "lng": 90.447557,
      "zoom": 12,
      "match_status": "adm3_alias",
      "matched_name": "Khilkhet"
    },
    {
      "id": "69",
      "division_id": "3",
      "district_id": "1",
      "city_corporation": "Dhaka South",
      "name": "Kakrail",
      "bn_name": "কাকরাইল",
      "lat": 23.748188,
      "lng": 90.406006,
      "zoom": 12,
      "match_status": "adm3_alias",
      "matched_name": "Ramna"
    },
    {
      "id": "70",
      "division_id": "3",
      "district_id": "1",
      "city_corporation": "Dhaka South",
      "name": "Malibagh",
      "bn_name": "মালিবাগ",
      "lat": 23.748188,
      "lng": 90.406006,
      "zoom": 12,
      "match_status": "adm3_alias",
      "matched_name": "Ramna"
    },
    {
      "id": "71",
      "division_id": "3",
      "district_id": "1",
      "city_corporation": "Dhaka South",
      "name": "Mouchak",
      "bn_name": "মৌচাক",
      "lat": 23.748188,
      "lng": 90.406006,
      "zoom": 12,
      "match_status": "adm3_alias",
      "matched_name": "Ramna"
    },
    {
      "id": "72",
      "division_id": "3",
      "district_id": "1",
      "city_corporation": "Dhaka South",
      "name": "Siddheshwari",
      "bn_name": "সিদ্ধেশ্বরী",
      "lat": 23.748188,
      "lng": 90.406006,
      "zoom": 12,
      "match_status": "adm3_alias",
      "matched_name": "Ramna"
    },
    {
      "id": "73",
      "division_id": "3",
      "district_id": "1",
      "city_corporation": "Dhaka South",
      "name": "Jatrabari",
      "bn_name": "যাত্রাবাড়ি",
      "lat": 23.713409,
      "lng": 90.451435,
      "zoom": 12,
      "match_status": "adm3_exact",
      "matched_name": "Jatrabari"
    },
    {
      "id": "74",
      "division_id": "3",
      "district_id": "1",
      "city_corporation": "Dhaka South",
      "name": "Jurain",
      "bn_name": "জুরাইন",
      "lat": 23.697113,
      "lng": 90.430068,
      "zoom": 12,
      "match_status": "adm3_alias",
      "matched_name": "Shyampur"
    },
    {
      "id": "75",
      "division_id": "3",
      "district_id": "1",
      "city_corporation": "Dhaka South",
      "name": "Dholpur",
      "bn_name": "ধলপুর",
      "lat": 23.713409,
      "lng": 90.451435,
      "zoom": 12,
      "match_status": "adm3_alias",
      "matched_name": "Jatrabari"
    },
    {
      "id": "76",
      "division_id": "3",
      "district_id": "1",
      "city_corporation": "Dhaka South",
      "name": "Posta",
      "bn_name": "পোস্টা",
      "lat": 23.718011,
      "lng": 90.405042,
      "zoom": 12,
      "match_status": "adm3_alias",
      "matched_name": "Bangshal"
    },
    {
      "id": "77",
      "division_id": "3",
      "district_id": "1",
      "city_corporation": "Dhaka South",
      "name": "Dhaka Cantonment",
      "bn_name": "ঢাকা ক্যান্টনমেন্ট",
      "lat": 23.814478,
      "lng": 90.399801,
      "zoom": 12,
      "match_status": "adm3_alias",
      "matched_name": "Cantonment"
    },
    {
      "id": "78",
      "division_id": "3",
      "district_id": "1",
      "city_corporation": "Dhaka South",
      "name": "Mirpur Cantonment",
      "bn_name": "মিরপুর ক্যান্টনমেন্ট",
      "lat": 23.814478,
      "lng": 90.399801,
      "zoom": 12,
      "match_status": "adm3_alias",
      "matched_name": "Cantonment"
    },
    {
      "id": "79",
      "division_id": "3",
      "district_id": "1",
      "city_corporation": "Dhaka South",
      "name": "Uttar Khan",
      "bn_name": "উত্তর খান",
      "lat": 23.874635,
      "lng": 90.44482,
      "zoom": 12,
      "match_status": "adm3_exact",
      "matched_name": "Uttar Khan"
    },
    {
      "id": "80",
      "division_id": "3",
      "district_id": "1",
      "city_corporation": "Dhaka South",
      "name": "Darus Salam",
      "bn_name": "দারুস সালাম",
      "lat": 23.784055,
      "lng": 90.345151,
      "zoom": 12,
      "match_status": "adm3_exact",
      "matched_name": "Darus Salam"
    },
    {
      "id": "81",
      "division_id": "3",
      "district_id": "1",
      "city_corporation": "Dhaka South",
      "name": "Khilkhet",
      "bn_name": "খিলক্ষেত",
      "lat": 23.834451,
      "lng": 90.447557,
      "zoom": 12,
      "match_status": "adm3_exact",
      "matched_name": "Khilkhet"
    },
    {
      "id": "82",
      "division_id": "3",
      "district_id": "1",
      "city_corporation": "Dhaka South",
      "name": "Nikunja",
      "bn_name": "নিকুঞ্জ",
      "lat": 23.834451,
      "lng": 90.447557,
      "zoom": 12,
      "match_status": "adm3_alias",
      "matched_name": "Khilkhet"
    },
    {
      "id": "83",
      "division_id": "3",
      "district_id": "1",
      "city_corporation": "Dhaka South",
      "name": "Airport",
      "bn_name": "এয়ারপোর্ট",
      "lat": 23.847507,
      "lng": 90.40595,
      "zoom": 12,
      "match_status": "adm3_alias",
      "matched_name": "Biman Bandar"
    },
    {
      "id": "84",
      "division_id": "3",
      "district_id": "1",
      "city_corporation": "Dhaka South",
      "name": "Rampura Bazar",
      "bn_name": "রামপুরা বাজার",
      "lat": 23.760909,
      "lng": 90.420745,
      "zoom": 12,
      "match_status": "adm3_exact",
      "matched_name": "Rampura"
    },
    {
      "id": "85",
      "division_id": "3",
      "district_id": "1",
      "city_corporation": "Dhaka South",
      "name": "Middle Badda",
      "bn_name": "মধ্য বড্ডা",
      "lat": 23.798007,
      "lng": 90.448937,
      "zoom": 12,
      "match_status": "adm3_alias",
      "matched_name": "Badda"
    },
    {
      "id": "86",
      "division_id": "3",
      "district_id": "1",
      "city_corporation": "Dhaka South",
      "name": "Banasree Block-C",
      "bn_name": "বনশ্রী ব্লক-সি",
      "lat": 23.760909,
      "lng": 90.420745,
      "zoom": 12,
      "match_status": "adm3_alias",
      "matched_name": "Rampura"
    },
    {
      "id": "87",
      "division_id": "3",
      "district_id": "1",
      "city_corporation": "Dhaka South",
      "name": "North Badda",
      "bn_name": "উত্তর বড্ডা",
      "lat": 23.798007,
      "lng": 90.448937,
      "zoom": 12,
      "match_status": "adm3_alias",
      "matched_name": "Badda"
    },
    {
      "id": "88",
      "division_id": "3",
      "district_id": "1",
      "city_corporation": "Dhaka South",
      "name": "Postogola",
      "bn_name": "পোস্তগোলা",
      "lat": 23.697113,
      "lng": 90.430068,
      "zoom": 12,
      "match_status": "adm3_alias",
      "matched_name": "Shyampur"
    },
    {
      "id": "89",
      "division_id": "3",
      "district_id": "1",
      "city_corporation": "Dhaka South",
      "name": "Dakshinkhan",
      "bn_name": "দক্ষিণখান",
      "lat": 23.861239,
      "lng": 90.425012,
      "zoom": 12,
      "match_status": "adm3_exact",
      "matched_name": "Dakshinkhan"
    },
    {
      "id": "90",
      "division_id": "3",
      "district_id": "1",
      "city_corporation": "Dhaka South",
      "name": "Nawabganj",
      "bn_name": "নবাবগঞ্জ",
      "lat": 23.67341,
      "lng": 90.160675,
      "zoom": 12,
      "match_status": "adm3_exact",
      "matched_name": "Nawabganj"
    },
    {
      "id": "91",
      "division_id": "3",
      "district_id": "1",
      "city_corporation": "Dhaka South",
      "name": "Jhigatola",
      "bn_name": "ঝিগাতলা",
      "lat": 23.745124,
      "lng": 90.373604,
      "zoom": 12,
      "match_status": "adm3_alias",
      "matched_name": "Dhanmondi"
    },
    {
      "id": "92",
      "division_id": "3",
      "district_id": "1",
      "city_corporation": "Dhaka South",
      "name": "Pallabi Extension",
      "bn_name": "পল্লবী এক্সটেনশন",
      "lat": 23.825406,
      "lng": 90.368159,
      "zoom": 12,
      "match_status": "adm3_exact",
      "matched_name": "Pallabi"
    },
    {
      "id": "93",
      "division_id": "3",
      "district_id": "1",
      "city_corporation": "Dhaka South",
      "name": "Uttara",
      "bn_name": "উত্তরা",
      "lat": 23.872161,
      "lng": 90.39411,
      "zoom": 12,
      "match_status": "adm3_exact",
      "matched_name": "Uttara"
    },
    {
      "id": "94",
      "division_id": "3",
      "district_id": "1",
      "city_corporation": "Dhaka South",
      "name": "Mohakhali",
      "bn_name": "মহাখালী",
      "lat": 23.762838,
      "lng": 90.391695,
      "zoom": 12,
      "match_status": "adm3_alias",
      "matched_name": "Tejgaon"
    },
    {
      "id": "95",
      "division_id": "3",
      "district_id": "1",
      "city_corporation": "Dhaka South",
      "name": "Badda",
      "bn_name": "বড্ডা",
      "lat": 23.798007,
      "lng": 90.448937,
      "zoom": 12,
      "match_status": "adm3_exact",
      "matched_name": "Badda"
    },
    {
      "id": "96",
      "division_id": "3",
      "district_id": "1",
      "city_corporation": "Dhaka South",
      "name": "Basabo",
      "bn_name": "বাসাবো",
      "lat": 23.734673,
      "lng": 90.442084,
      "zoom": 12,
      "match_status": "adm3_alias",
      "matched_name": "Sabujbagh"
    },
    {
      "id": "97",
      "division_id": "3",
      "district_id": "1",
      "city_corporation": "Dhaka South",
      "name": "Merul Badda",
      "bn_name": "মেরুল বড্ডা",
      "lat": 23.798007,
      "lng": 90.448937,
      "zoom": 12,
      "match_status": "adm3_alias",
      "matched_name": "Badda"
    },
    {
      "id": "98",
      "division_id": "3",
      "district_id": "1",
      "city_corporation": "Dhaka South",
      "name": "Bashabo",
      "bn_name": "বাসাবো",
      "lat": 23.711525,
      "lng": 90.411145,
      "zoom": 11,
      "match_status": "district_fallback",
      "matched_name": "Dhaka"
    },
    {
      "id": "99",
      "division_id": "3",
      "district_id": "1",
      "city_corporation": "Dhaka South",
      "name": "Shantibagh",
      "bn_name": "শান্তিবাগ",
      "lat": 23.734936,
      "lng": 90.413796,
      "zoom": 12,
      "match_status": "adm3_alias",
      "matched_name": "Paltan"
    },
    {
      "id": "100",
      "division_id": "3",
      "district_id": "1",
      "city_corporation": "Dhaka South",
      "name": "Basundhara Residential Area",
      "bn_name": "বসুন্ধরা রেজিডেনশিয়াল এলাকা",
      "lat": 23.834451,
      "lng": 90.447557,
      "zoom": 12,
      "match_status": "adm3_alias",
      "matched_name": "Khilkhet"
    },
    {
      "id": "101",
      "division_id": "3",
      "district_id": "1",
      "city_corporation": "Dhaka South",
      "name": "Mohammadpur Housing",
      "bn_name": "মোহাম্মদপুর হাউজিং",
      "lat": 23.758631,
      "lng": 90.356693,
      "zoom": 12,
      "match_status": "adm3_exact",
      "matched_name": "Mohammadpur"
    },
    {
      "id": "102",
      "division_id": "3",
      "district_id": "1",
      "city_corporation": "Dhaka South",
      "name": "Green Road",
      "bn_name": "গ্রিন রোড",
      "lat": 23.747065,
      "lng": 90.38615,
      "zoom": 12,
      "match_status": "adm3_alias",
      "matched_name": "Kalabagan"
    },
    {
      "id": "103",
      "division_id": "3",
      "district_id": "1",
      "city_corporation": "Dhaka South",
      "name": "Mohammadpur Krishi Market",
      "bn_name": "মোহাম্মদপুর কৃষি মার্কেট",
      "lat": 23.758631,
      "lng": 90.356693,
      "zoom": 12,
      "match_status": "adm3_exact",
      "matched_name": "Mohammadpur"
    },
    {
      "id": "104",
      "division_id": "3",
      "district_id": "1",
      "city_corporation": "Dhaka South",
      "name": "Tikatuli",
      "bn_name": "টিকাটুলি",
      "lat": 23.713813,
      "lng": 90.417358,
      "zoom": 12,
      "match_status": "adm3_alias",
      "matched_name": "Sutrapur"
    },
    {
      "id": "105",
      "division_id": "3",
      "district_id": "1",
      "city_corporation": "Dhaka South",
      "name": "Kamalapur",
      "bn_name": "কমলাপুর",
      "lat": 23.734763,
      "lng": 90.421462,
      "zoom": 12,
      "match_status": "adm3_alias",
      "matched_name": "Motijheel"
    },
    {
      "id": "106",
      "division_id": "3",
      "district_id": "1",
      "city_corporation": "Dhaka South",
      "name": "Basundhara R/A",
      "bn_name": "বসুন্ধরা আর/এ",
      "lat": 23.834451,
      "lng": 90.447557,
      "zoom": 12,
      "match_status": "adm3_alias",
      "matched_name": "Khilkhet"
    },
    {
      "id": "107",
      "division_id": "3",
      "district_id": "1",
      "city_corporation": "Dhaka South",
      "name": "Shantibagh R/A",
      "bn_name": "শান্তিবাগ আর/এ",
      "lat": 23.734936,
      "lng": 90.413796,
      "zoom": 12,
      "match_status": "adm3_alias",
      "matched_name": "Paltan"
    },
    {
      "id": "108",
      "division_id": "3",
      "district_id": "1",
      "city_corporation": "Dhaka South",
      "name": "Monipur",
      "bn_name": "মনিপুর",
      "lat": 23.79416,
      "lng": 90.361756,
      "zoom": 12,
      "match_status": "adm3_alias",
      "matched_name": "Mirpur"
    },
    {
      "id": "109",
      "division_id": "3",
      "district_id": "1",
      "city_corporation": "Dhaka South",
      "name": "Rayer Bazar",
      "bn_name": "রায়েরবাজার",
      "lat": 23.758631,
      "lng": 90.356693,
      "zoom": 12,
      "match_status": "adm3_alias",
      "matched_name": "Mohammadpur"
    },
    {
      "id": "110",
      "division_id": "3",
      "district_id": "1",
      "city_corporation": "Dhaka South",
      "name": "Baily Road",
      "bn_name": "বেইলি রোড",
      "lat": 23.748188,
      "lng": 90.406006,
      "zoom": 12,
      "match_status": "adm3_alias",
      "matched_name": "Ramna"
    },
    {
      "id": "111",
      "division_id": "3",
      "district_id": "1",
      "city_corporation": "Dhaka South",
      "name": "Elephant Road",
      "bn_name": "হাতিরপুল",
      "lat": 23.747065,
      "lng": 90.38615,
      "zoom": 12,
      "match_status": "adm3_alias",
      "matched_name": "Kalabagan"
    },
    {
      "id": "112",
      "division_id": "3",
      "district_id": "1",
      "city_corporation": "Dhaka South",
      "name": "New Market",
      "bn_name": "নিউমার্কেট",
      "lat": 23.735564,
      "lng": 90.38088,
      "zoom": 12,
      "match_status": "adm3_exact",
      "matched_name": "New Market"
    },
    {
      "id": "113",
      "division_id": "3",
      "district_id": "1",
      "city_corporation": "Dhaka South",
      "name": "Hatirpool",
      "bn_name": "হাতিরপুল",
      "lat": 23.747065,
      "lng": 90.38615,
      "zoom": 12,
      "match_status": "adm3_alias",
      "matched_name": "Kalabagan"
    },
    {
      "id": "114",
      "division_id": "3",
      "district_id": "1",
      "city_corporation": "Dhaka South",
      "name": "Panthapath",
      "bn_name": "পান্থপথ",
      "lat": 23.747065,
      "lng": 90.38615,
      "zoom": 12,
      "match_status": "adm3_alias",
      "matched_name": "Kalabagan"
    },
    {
      "id": "115",
      "division_id": "3",
      "district_id": "1",
      "city_corporation": "Dhaka South",
      "name": "Zigatola",
      "bn_name": "জিগাতোলা",
      "lat": 23.745124,
      "lng": 90.373604,
      "zoom": 12,
      "match_status": "adm3_alias",
      "matched_name": "Dhanmondi"
    },
    {
      "id": "116",
      "division_id": "3",
      "district_id": "1",
      "city_corporation": "Dhaka South",
      "name": "Badda Link Road",
      "bn_name": "বড্ডা লিংক রোড",
      "lat": 23.798007,
      "lng": 90.448937,
      "zoom": 12,
      "match_status": "adm3_alias",
      "matched_name": "Badda"
    },
    {
      "id": "117",
      "division_id": "3",
      "district_id": "1",
      "city_corporation": "Dhaka South",
      "name": "South Mugda",
      "bn_name": "দক্ষিন মুগদা",
      "lat": 23.734673,
      "lng": 90.442084,
      "zoom": 12,
      "match_status": "adm3_alias",
      "matched_name": "Sabujbagh"
    },
    {
      "id": "118",
      "division_id": "3",
      "district_id": "1",
      "city_corporation": "Dhaka South",
      "name": "Notun Bazar",
      "bn_name": "নতুন বাজার",
      "lat": 23.798007,
      "lng": 90.448937,
      "zoom": 12,
      "match_status": "adm3_alias",
      "matched_name": "Badda"
    },
    {
      "id": "119",
      "division_id": "3",
      "district_id": "1",
      "city_corporation": "Dhaka South",
      "name": "Malibagh Chowdhurypara",
      "bn_name": "মালিবাগ চৌধুরীপাড়া",
      "lat": 23.748188,
      "lng": 90.406006,
      "zoom": 12,
      "match_status": "adm3_alias",
      "matched_name": "Ramna"
    },
    {
      "id": "120",
      "division_id": "3",
      "district_id": "1",
      "city_corporation": "Dhaka South",
      "name": "Kadamtoli",
      "bn_name": "কাদমতলী",
      "lat": 23.687267,
      "lng": 90.44876,
      "zoom": 12,
      "match_status": "adm3_alias",
      "matched_name": "Kadamtali"
    },
    {
      "id": "121",
      "division_id": "3",
      "district_id": "1",
      "city_corporation": "Dhaka South",
      "name": "Khilgaon",
      "bn_name": "খিলগাঁও",
      "lat": 23.7599,
      "lng": 90.454774,
      "zoom": 12,
      "match_status": "adm3_exact",
      "matched_name": "Khilgaon"
    },
    {
      "id": "122",
      "division_id": "3",
      "district_id": "1",
      "city_corporation": "Dhaka South",
      "name": "Shampur",
      "bn_name": "শ্যামপুর",
      "lat": 23.697113,
      "lng": 90.430068,
      "zoom": 12,
      "match_status": "adm3_alias",
      "matched_name": "Shyampur"
    },
    {
      "id": "123",
      "division_id": "3",
      "district_id": "1",
      "city_corporation": "Dhaka South",
      "name": "Malibagh Rail Gate",
      "bn_name": "মালিবাগ রেলগেট",
      "lat": 23.748188,
      "lng": 90.406006,
      "zoom": 12,
      "match_status": "adm3_alias",
      "matched_name": "Ramna"
    },
    {
      "id": "124",
      "division_id": "3",
      "district_id": "1",
      "city_corporation": "Dhaka South",
      "name": "Bongshal",
      "bn_name": "বংশাল",
      "lat": 23.718011,
      "lng": 90.405042,
      "zoom": 12,
      "match_status": "adm3_alias",
      "matched_name": "Bangshal"
    },
    {
      "id": "125",
      "division_id": "3",
      "district_id": "1",
      "city_corporation": "Dhaka South",
      "name": "Motijheel",
      "bn_name": "মতিঝিল",
      "lat": 23.734763,
      "lng": 90.421462,
      "zoom": 12,
      "match_status": "adm3_exact",
      "matched_name": "Motijheel"
    },
    {
      "id": "126",
      "division_id": "3",
      "district_id": "1",
      "city_corporation": "Dhaka South",
      "name": "Tanti Bazar",
      "bn_name": "তান্তি বাজার",
      "lat": 23.718011,
      "lng": 90.405042,
      "zoom": 12,
      "match_status": "adm3_alias",
      "matched_name": "Bangshal"
    },
    {
      "id": "127",
      "division_id": "3",
      "district_id": "1",
      "city_corporation": "Dhaka South",
      "name": "Rupnagar",
      "bn_name": "রূপনগর",
      "lat": 23.825406,
      "lng": 90.368159,
      "zoom": 12,
      "match_status": "adm3_alias",
      "matched_name": "Pallabi"
    },
    {
      "id": "128",
      "division_id": "3",
      "district_id": "1",
      "city_corporation": "Dhaka South",
      "name": "Nayatola",
      "bn_name": "নয়াটলা",
      "lat": 23.734936,
      "lng": 90.413796,
      "zoom": 12,
      "match_status": "adm3_alias",
      "matched_name": "Paltan"
    },
    {
      "id": "129",
      "division_id": "3",
      "district_id": "1",
      "city_corporation": "Dhaka South",
      "name": "Khilgaon Taltola",
      "bn_name": "খিলগাঁও তালতলা",
      "lat": 23.7599,
      "lng": 90.454774,
      "zoom": 12,
      "match_status": "adm3_alias",
      "matched_name": "Khilgaon"
    },
    {
      "id": "130",
      "division_id": "3",
      "district_id": "1",
      "city_corporation": "Dhaka South",
      "name": "Bijoynagar",
      "bn_name": "বিজয়নগর",
      "lat": 23.734936,
      "lng": 90.413796,
      "zoom": 12,
      "match_status": "adm3_alias",
      "matched_name": "Paltan"
    },
    {
      "id": "131",
      "division_id": "3",
      "district_id": "1",
      "city_corporation": "Dhaka South",
      "name": "Islampur",
      "bn_name": "ইসলামপুর",
      "lat": 23.718011,
      "lng": 90.405042,
      "zoom": 12,
      "match_status": "adm3_alias",
      "matched_name": "Bangshal"
    },
    {
      "id": "132",
      "division_id": "3",
      "district_id": "1",
      "city_corporation": "Dhaka South",
      "name": "Kalabagan",
      "bn_name": "কলাবাগান",
      "lat": 23.747065,
      "lng": 90.38615,
      "zoom": 12,
      "match_status": "adm3_exact",
      "matched_name": "Kalabagan"
    },
    {
      "id": "133",
      "division_id": "3",
      "district_id": "1",
      "city_corporation": "Dhaka South",
      "name": "Agargaon",
      "bn_name": "আগারগাঁও",
      "lat": 23.769977,
      "lng": 90.375875,
      "zoom": 12,
      "match_status": "adm3_alias",
      "matched_name": "Sher-e-bangla Nagar"
    },
    {
      "id": "134",
      "division_id": "3",
      "district_id": "1",
      "city_corporation": "North",
      "name": "Mirpur-1",
      "bn_name": "মিরপুর-১",
      "lat": 23.79416,
      "lng": 90.361756,
      "zoom": 12,
      "match_status": "adm3_alias",
      "matched_name": "Mirpur"
    },
    {
      "id": "135",
      "division_id": "3",
      "district_id": "1",
      "city_corporation": "North",
      "name": "Mirpur-2",
      "bn_name": "মিরপুর-২",
      "lat": 23.79416,
      "lng": 90.361756,
      "zoom": 12,
      "match_status": "adm3_alias",
      "matched_name": "Mirpur"
    },
    {
      "id": "136",
      "division_id": "3",
      "district_id": "1",
      "city_corporation": "North",
      "name": "Mirpur-6",
      "bn_name": "মিরপুর-৬",
      "lat": 23.825406,
      "lng": 90.368159,
      "zoom": 12,
      "match_status": "adm3_alias",
      "matched_name": "Pallabi"
    },
    {
      "id": "137",
      "division_id": "3",
      "district_id": "1",
      "city_corporation": "North",
      "name": "Mirpur-7",
      "bn_name": "মিরপুর-৭",
      "lat": 23.825406,
      "lng": 90.368159,
      "zoom": 12,
      "match_status": "adm3_alias",
      "matched_name": "Pallabi"
    },
    {
      "id": "138",
      "division_id": "3",
      "district_id": "1",
      "city_corporation": "North",
      "name": "Mirpur-10",
      "bn_name": "মিরপুর-১০",
      "lat": 23.79416,
      "lng": 90.361756,
      "zoom": 12,
      "match_status": "adm3_alias",
      "matched_name": "Mirpur"
    },
    {
      "id": "139",
      "division_id": "3",
      "district_id": "1",
      "city_corporation": "North",
      "name": "Mirpur-11",
      "bn_name": "মিরপুর-১১",
      "lat": 23.825406,
      "lng": 90.368159,
      "zoom": 12,
      "match_status": "adm3_alias",
      "matched_name": "Pallabi"
    },
    {
      "id": "140",
      "division_id": "3",
      "district_id": "1",
      "city_corporation": "North",
      "name": "Mirpur-12",
      "bn_name": "মিরপুর-১২",
      "lat": 23.825406,
      "lng": 90.368159,
      "zoom": 12,
      "match_status": "adm3_alias",
      "matched_name": "Pallabi"
    },
    {
      "id": "141",
      "division_id": "3",
      "district_id": "1",
      "city_corporation": "North",
      "name": "Mirpur-13",
      "bn_name": "মিরপুর-১৩",
      "lat": 23.825406,
      "lng": 90.368159,
      "zoom": 12,
      "match_status": "adm3_alias",
      "matched_name": "Pallabi"
    },
    {
      "id": "142",
      "division_id": "3",
      "district_id": "1",
      "city_corporation": "North",
      "name": "Mirpur-14",
      "bn_name": "মিরপুর-১৪",
      "lat": 23.825406,
      "lng": 90.368159,
      "zoom": 12,
      "match_status": "adm3_alias",
      "matched_name": "Pallabi"
    }
  ],
  "summary": {
    "adm3_exact": 42,
    "adm3_alias": 98,
    "adm4_alias": 1,
    "district_fallback": 1
  }
}